,학교ID,학교명,학교급구분,설립일자,설립형태,본교분교구분,운영상태,소재지지번주소,소재지도로명주소,시도교육청코드,시도교육청명,위도,경도
0,B000013333,진주외국어고등학교,고등학교,1970-12-26,사립,본교,운영,경상남도 진주시 일반성면 개암리 884,경상남도 진주시 일반성면 동부로 2014-6,9010000,경상남도교육청,35.16965618,128.281668
1,B000022925,용남고등학교,고등학교,1991-03-09,공립,본교,운영,충청남도 계룡시 신도안면 남선리 1278,충청남도 계룡시 신도안면 신도안1길 32,8140000,충청남도교육청,36.29430921,127.2447646
2,B000010931,장곡중학교,중학교,2001-03-06,공립,본교,운영,경상북도 칠곡군 석적읍 중리 246,경상북도 칠곡군 석적읍 남중리8길 13,8750000,경상북도교육청,36.07345548,128.4150883
3,B000011284,대정중학교,중학교,1946-11-08,공립,본교,운영,제주특별자치도 서귀포시 대정읍 하모리 778,제주특별자치도 서귀포시 대정읍 비행장로 18,9290000,제주특별자치도교육청,33.21996162,126.2532327
4,B000008177,안천중학교,중학교,1991-03-01,공립,본교,운영,서울특별시 금천구 독산동 1089,서울특별시 금천구 한내로 69-44,7010000,서울특별시교육청,37.45952426,126.8874988
6,B000012725,봉일천고등학교,고등학교,2007-03-06,공립,본교,운영,경기도 파주시 조리읍 봉일천리 254-2,경기도 파주시 조리읍 소곡로 54,7530000,경기도교육청,37.74699036,126.8162726
7,B000009526,안성중학교,중학교,1939-03-24,공립,본교,운영,경기도 안성시 금산동 33-12,경기도 안성시 금산길 43,7530000,경기도교육청,37.01331333,127.2704648
9,B000008476,태종대중학교,중학교,1974-12-21,공립,본교,운영,부산광역시 영도구 동삼동 523-1,부산광역시 영도구 함지로79번길 9,7150000,부산광역시교육청,35.07367396,129.0649205
12,B000011331,홍익디자인고등학교,고등학교,1968-03-01,사립,본교,운영,서울특별시 마포구 연남동 369-1,서울특별시 마포구 성미산로 111,7010000,서울특별시교육청,37.56351064,126.9191663
13,B000011107,한림중학교,중학교,1952-06-20,사립,본교,운영,경상남도 김해시 한림면 장방리 346,경상남도 김해시 한림면 한림로365번길 33,9010000,경상남도교육청,35.32172162,128.7996056
14,B000012051,영락고등학교,고등학교,1959-04-09,사립,본교,운영,서울특별시 관악구 봉천동 1558-1,서울특별시 관악구 청룡16길 25,7010000,서울특별시교육청,37.47654259,126.9454164
15,B000008271,오주중학교,중학교,1984-09-01,공립,본교,운영,서울특별시 송파구 오금동 59,서울특별시 송파구 동남로 281,7010000,서울특별시교육청,37.50150661,127.1362653
17,B000023774,심인중학교,중학교,1955-05-15,사립,본교,운영,대구광역시 달성군 다사읍 죽곡리 820,대구광역시 달성군 다사읍 대실역남로1길 21,7240000,대구광역시교육청,35.85308854,128.4678979
19,B000008732,용산중학교,중학교,1985-03-01,공립,본교,운영,대구광역시 달서구 용산동 888,대구광역시 달서구 와룡로45길 72,7240000,대구광역시교육청,35.85416455,128.5323609
21,B000012687,일산대진고등학교,고등학교,1995-03-01,사립,본교,운영,경기도 고양시 일산서구 대화동 2097,경기도 고양시 일산서구 대산로 246,7530000,경기도교육청,37.68047139,126.7515967
23,B000012878,보은고등학교,고등학교,1976-03-06,사립,본교,운영,충청북도 보은군 보은읍 죽전리 61,충청북도 보은군 보은읍 보은로 17,8000000,충청북도교육청,36.47530948,127.7205512
24,B000008611,센텀중학교,중학교,2006-03-01,공립,본교,운영,부산광역시 해운대구 재송동 1206,부산광역시 해운대구 센텀북대로 32,7150000,부산광역시교육청,35.17536656,129.1237586
26,B000025211,인천연송고등학교,고등학교,2013-03-01,공립,본교,운영,인천광역시 연수구 송도동 15-4,인천광역시 연수구 컨벤시아대로42번길 72,7310000,인천광역시교육청,37.40316747,126.6467361
27,B000009473,광명북중학교,중학교,1986-03-01,공립,본교,운영,경기도 광명시 철산동 59,경기도 광명시 시청로 121,7530000,경기도교육청,37.48714374,126.8657712
29,B000009853,정선중학교,중학교,1946-07-16,공립,본교,운영,강원도 정선군 정선읍 봉양리 153-1,강원도 정선군 정선읍 봉양4길 15,7800000,강원도교육청,37.37821677,128.6609171
30,B000008942,광주서광중학교,중학교,1970-03-05,공립,본교,운영,광주광역시 남구 백운동 614-1,광주광역시 남구 진다리로24번길 13,7380000,광주광역시교육청,35.13634616,126.9042624
31,B000012515,과천여자고등학교,고등학교,1976-03-02,사립,본교,운영,경기도 과천시 중앙동 11-4,경기도 과천시 희망길 36,7530000,경기도교육청,37.43264355,126.9881073
32,B000011858,과천외국어고등학교,고등학교,1990-03-05,사립,본교,운영,경기도 과천시 중앙동 11-4,경기도 과천시 희망길 36,7530000,경기도교육청,37.43264355,126.9881073
36,B000008491,두송중학교,중학교,2006-03-03,공립,본교,운영,부산광역시 사하구 다대동 1580,부산광역시 사하구 다송로 76,7150000,부산광역시교육청,35.06065932,128.9829531
37,B000011354,서울로봇고등학교,고등학교,1994-01-04,공립,본교,운영,서울특별시 강남구 일원동 738,서울특별시 강남구 광평로20길 63,7010000,서울특별시교육청,37.48073174,127.0845761
38,B000012069,은광여자고등학교,고등학교,1946-10-15,사립,본교,운영,서울특별시 강남구 도곡동 938-10,서울특별시 강남구 남부순환로359길 36,7010000,서울특별시교육청,37.48837857,127.0352324
39,B000008555,부곡여자중학교,중학교,1981-10-14,공립,본교,운영,부산광역시 금정구 부곡동 717-1,부산광역시 금정구 가마실로 56,7150000,부산광역시교육청,35.22332989,129.0953419
41,B000008626,한바다중학교,중학교,1969-10-10,공립,본교,운영,부산광역시 수영구 광안동 154-1,부산광역시 수영구 광안로21번가길 57,7150000,부산광역시교육청,35.15729241,129.1176119
43,B000013464,선덕고등학교,고등학교,1983-03-05,사립,본교,운영,서울특별시 도봉구 쌍문동 263,서울특별시 도봉구 시루봉로 53,7010000,서울특별시교육청,37.65634868,127.0268766
46,B000009037,대전변동중학교,중학교,1983-11-04,공립,본교,운영,대전광역시 서구 변동 54-1,대전광역시 서구 도산로181번길 39,7430000,대전광역시교육청,36.3247386,127.3757901
47,B000012723,문산제일고등학교,고등학교,1942-04-26,공립,본교,운영,경기도 파주시 야동동 361,경기도 파주시 평화로 190,7530000,경기도교육청,37.77260399,126.7628873
48,B000011404,대구서부공업고등학교,고등학교,1997-03-07,공립,본교,운영,대구광역시 서구 내당동 456-1,대구광역시 서구 당산로 228,7240000,대구광역시교육청,35.85749282,128.5482964
50,B000012814,상동고등학교,고등학교,1955-12-31,공립,본교,운영,강원도 영월군 상동읍 천평리 414,강원도 영월군 상동읍 태백산로 3147,7800000,강원도교육청,37.12525841,128.8224544
51,B000023752,운남중학교,중학교,2021-03-01,공립,본교,운영,경상북도 김천시 율곡동 370,경상북도 김천시 우래1길 7,8750000,경상북도교육청,36.12213188,128.1791173
54,B000013537,서대전여자고등학교,고등학교,1984-03-02,사립,본교,운영,대전광역시 서구 도마동 420-3,대전광역시 서구 배재로197번길 20,7430000,대전광역시교육청,36.32773715,127.369556
55,B000012168,부산남일고등학교,고등학교,1985-03-05,공립,본교,운영,부산광역시 수영구 망미동 920-10,부산광역시 수영구 망미배산로48번길 85-23,7150000,부산광역시교육청,35.17856564,129.1011712
57,B000008352,세화여자중학교,중학교,1978-03-01,사립,본교,운영,서울특별시 서초구 반포동 13,서울특별시 서초구 신반포로 56-7,7010000,서울특별시교육청,37.5019828,126.99423
58,B000009395,대흥중학교,중학교,1995-03-03,공립,본교,운영,경기도 시흥시 대야동 377-70,경기도 시흥시 서해안로 1587,7530000,경기도교육청,37.44744016,126.784073
60,B000013517,상인고등학교,고등학교,2001-03-05,공립,본교,운영,대구광역시 달서구 상인동 1562,대구광역시 달서구 상인로 24,7240000,대구광역시교육청,35.81045198,128.5512978
61,B000013071,영흥고등학교,고등학교,1980-10-18,사립,본교,운영,전라남도 목포시 상동 55,전라남도 목포시 삼각로43번길 9,8490000,전라남도교육청,34.80525243,126.416556
63,B000008399,인헌중학교,중학교,1971-01-16,공립,본교,운영,서울특별시 관악구 봉천동 1647,서울특별시 관악구 인헌9길 35,7010000,서울특별시교육청,37.47269621,126.9688402
64,B000013288,마산여자고등학교,고등학교,1915-03-21,공립,본교,운영,경상남도 창원시 마산합포구 완월동 300,경상남도 창원시 마산합포구 고운로 157,9010000,경상남도교육청,35.19593834,128.5614097
66,B000008752,북동중학교,중학교,2005-03-24,공립,본교,운영,대구광역시 달성군 논공읍 남리 318,대구광역시 달성군 논공읍 논공로7길 43,7240000,대구광역시교육청,35.73243383,128.4374066
67,B000008751,논공중학교,중학교,1998-03-01,공립,본교,운영,대구광역시 달성군 논공읍 남리 717-5,대구광역시 달성군 논공읍 논공로 256,7240000,대구광역시교육청,35.72382525,128.4572009
69,B000008255,성심여자중학교,중학교,1957-05-25,사립,본교,운영,서울특별시 용산구 원효로4가 1-1,서울특별시 용산구 원효로19길 49,7010000,서울특별시교육청,37.53420937,126.9545934
70,B000022928,용남중학교,중학교,1989-09-01,공립,본교,운영,충청남도 계룡시 신도안면 남선리 1319,충청남도 계룡시 신도안면 신도안2길 66,8140000,충청남도교육청,36.30064433,127.2441239
71,B000008689,구암중학교,중학교,1995-03-01,공립,본교,운영,대구광역시 북구 구암동 694-2,대구광역시 북구 태암로 85,7240000,대구광역시교육청,35.92751351,128.5571252
76,B000009475,하안중학교,중학교,1993-03-01,공립,본교,운영,경기도 광명시 하안동 25,경기도 광명시 안현로 80-1,7530000,경기도교육청,37.46738575,126.8807721
77,B000011530,두원공업고등학교,고등학교,1990-10-10,사립,본교,운영,경기도 안성시 미양면 신기리 203-4,경기도 안성시 미양면 미양로 727,7530000,경기도교육청,36.99677795,127.2417999
81,B000012260,숭덕여자고등학교,고등학교,1986-03-01,사립,본교,운영,인천광역시 남동구 만수동 5-213,인천광역시 남동구 만수로73번길 20-23,7310000,인천광역시교육청,37.46428211,126.7339171
82,B000011443,산마을고등학교,고등학교,1999-12-01,사립,본교,운영,인천광역시 강화군 양도면 삼흥리 460,인천광역시 강화군 양도면 강화남로1002번길 73-29,7310000,인천광역시교육청,37.68636257,126.4255653
83,B000013509,대구서부고등학교,고등학교,1997-03-01,공립,본교,운영,대구광역시 서구 평리동 1070-48,대구광역시 서구 국채보상로53길 32,7240000,대구광역시교육청,35.87365309,128.5602007
84,B000013194,안동여자고등학교,고등학교,1942-05-01,공립,본교,운영,경상북도 안동시 법상동 23-1,경상북도 안동시 법상윗3길 32,8750000,경상북도교육청,36.57303974,128.7256251
94,B000011547,소양고등학교,고등학교,1910-04-29,공립,본교,운영,강원도 춘천시 사농동 122,강원도 춘천시 영서로 2872,7800000,강원도교육청,37.91001603,127.7232945
96,B000013456,대광고등학교,고등학교,1949-10-25,사립,본교,운영,서울특별시 동대문구 신설동 53-3,서울특별시 동대문구 안암로 6,7010000,서울특별시교육청,37.57795467,127.0253235
98,B000009736,동산중학교,중학교,1970-03-10,공립,본교,운영,강원도 춘천시 동산면 조양리 703-1,강원도 춘천시 동산면 영서로 461-22,7800000,강원도교육청,37.75022835,127.7909631
99,B000012768,대성고등학교,고등학교,1954-05-07,사립,본교,운영,강원도 원주시 무실동 산123-1,강원도 원주시 북원로 2001,7800000,강원도교육청,37.32730971,127.9208654
100,B000008955,송광중학교,중학교,2004-03-01,공립,본교,운영,광주광역시 광산구 송정동 900,광주광역시 광산구 송정로 74,7380000,광주광역시교육청,35.13340294,126.7979491
101,B000011220,수동중학교,중학교,1954-07-03,공립,본교,운영,경상남도 함양군 수동면 화산리 1010,경상남도 함양군 수동면 수동내동길 19,9010000,경상남도교육청,35.52433595,127.7895834
103,B000011763,김해건설공업고등학교,고등학교,1978-03-01,공립,본교,운영,경상남도 김해시 구산동 180,경상남도 김해시 구지로 109,9010000,경상남도교육청,35.23954528,128.8759904
106,B000025212,인천포스코고등학교,고등학교,2015-03-01,사립,본교,운영,인천광역시 연수구 송도동 15-6,인천광역시 연수구 컨벤시아대로42번길 50,7310000,인천광역시교육청,37.40146601,126.6483623
108,B000013199,성창여자고등학교,고등학교,1981-03-05,사립,본교,운영,경상북도 안동시 안기동 312,경상북도 안동시 석수길 53,8750000,경상북도교육청,36.5787438,128.7126189
112,B000023943,광양마동중학교,중학교,2015-03-01,공립,본교,운영,전라남도 광양시 마동 1020,전라남도 광양시 느지매기길 7,8490000,전라남도교육청,34.95426716,127.6878322
115,B000011659,여수해양과학고등학교,고등학교,1980-03-08,공립,본교,운영,전라남도 여수시 돌산읍 군내리 139,전라남도 여수시 돌산읍 돌산로 1201-18,8490000,전라남도교육청,34.61413689,127.727
116,B000013203,풍산고등학교,고등학교,1968-03-05,사립,본교,운영,경상북도 안동시 풍산읍 안교리 320,경상북도 안동시 풍산읍 풍산중앙길 39,8750000,경상북도교육청,36.58414665,128.5665358
118,B000012141,센텀고등학교,고등학교,2008-03-01,공립,본교,운영,부산광역시 해운대구 재송동 1222,부산광역시 해운대구 해운대로 246,7150000,부산광역시교육청,35.17710343,129.1269806
120,B000009271,호성중학교,중학교,2003-03-01,공립,본교,운영,경기도 안양시 동안구 호계동 781-3,경기도 안양시 동안구 호성로 55,7530000,경기도교육청,37.36691837,126.9637649
121,B000010864,자인여자중학교,중학교,1970-03-01,사립,본교,운영,경상북도 경산시 자인면 동부리 208,경상북도 경산시 자인면 원효로 851-16,8750000,경상북도교육청,35.81597515,128.8278499
122,B000011219,함양여자중학교,중학교,1960-04-07,공립,본교,운영,경상남도 함양군 함양읍 교산리 956,경상남도 함양군 함양읍 함양여중길 18-9,9010000,경상남도교육청,35.52395122,127.7246365
123,B000008319,등명중학교,중학교,1995-05-06,공립,본교,운영,서울특별시 강서구 등촌동 690-4,서울특별시 강서구 공항대로39길 39,7010000,서울특별시교육청,37.56019335,126.8433041
126,B000010756,복주여자중학교,중학교,1981-12-08,공립,본교,운영,경상북도 안동시 당북동 333-1,경상북도 안동시 안기천로 58,8750000,경상북도교육청,36.56259417,128.7180369
130,B000012773,원주금융회계고등학교,고등학교,1980-11-26,공립,본교,운영,강원도 원주시 부론면 법천리 1442,강원도 원주시 부론면 부귀로 35,7800000,강원도교육청,37.20782695,127.7516585
133,B000013295,합포고등학교,고등학교,1989-02-18,공립,본교,운영,경상남도 창원시 마산합포구 교방동 170-1,경상남도 창원시 마산합포구 무학로 458,9010000,경상남도교육청,35.20941219,128.5643386
137,B000013458,원묵고등학교,고등학교,2007-05-31,공립,본교,운영,서울특별시 중랑구 묵동 23,서울특별시 중랑구 숙선옹주로 82,7010000,서울특별시교육청,37.61523231,127.0855078
142,B000012388,동대전고등학교,고등학교,1983-03-10,공립,본교,운영,대전광역시 대덕구 중리동 234-3,대전광역시 대덕구 청림길 33,7430000,대전광역시교육청,36.35628714,127.4236428
145,B000008872,인천청라중학교,중학교,2011-03-01,공립,본교,운영,인천광역시 서구 청라동 125-4,인천광역시 서구 청라라임로 112,7310000,인천광역시교육청,37.53783941,126.653874
149,B000012183,경덕여자고등학교,고등학교,1983-09-23,공립,본교,운영,대구광역시 서구 중리동 100-1,대구광역시 서구 국채보상로34길 50,7240000,대구광역시교육청,35.86357119,128.5489381
151,B000023263,세종고등학교,고등학교,1926-10-06,공립,본교,운영,세종특별자치시 조치원읍 서창리 30-2,세종특별자치시 조치원읍 조치원중고길 10,9300000,세종특별자치시교육청,36.6113263,127.298987
153,B000011134,동부중학교,중학교,1960-05-01,공립,본교,운영,경상남도 거제시 동부면 산양리 348,경상남도 거제시 동부면 동부로 28-6,9010000,경상남도교육청,34.82084244,128.6079629
154,B000011233,거창중학교고제분교장,중학교,1972-03-01,공립,분교,운영,경상남도 거창군 고제면 농산리 184,경상남도 거창군 고제면 고제로 48,9010000,경상남도교육청,35.81412414,127.8735691
158,B000009467,철산중학교,중학교,1983-03-01,공립,본교,운영,경기도 광명시 철산동 558,경기도 광명시 철망산로 71,7530000,경기도교육청,37.47030832,126.8753237
161,B000012840,고성고등학교,고등학교,1958-05-25,공립,본교,운영,강원도 고성군 간성읍 상리 391,강원도 고성군 간성읍 수성로 125,7800000,강원도교육청,38.3782834,128.4610029
162,B000012123,사직여자고등학교,고등학교,1986-04-29,사립,본교,운영,부산광역시 동래구 사직동 981-1,부산광역시 동래구 쇠미로27번길 21,7150000,부산광역시교육청,35.1968431,129.0514472
163,B000012380,대전지족고등학교,고등학교,2004-03-01,공립,본교,운영,대전광역시 유성구 지족동 857,대전광역시 유성구 노은서로 202,7430000,대전광역시교육청,36.37803212,127.3156568
164,B000023142,다정고등학교,고등학교,2019-03-01,공립,본교,운영,세종특별자치시 다정동 22-3,세종특별자치시 다정남로 15,9300000,세종특별자치시교육청,36.49334119,127.2422287
168,B000011764,김해생명과학고등학교,고등학교,1927-05-05,공립,본교,운영,경상남도 김해시 외동 743,경상남도 김해시 금관대로 1239,9010000,경상남도교육청,35.23723898,128.8552702
173,B000011032,창원대산중학교,중학교,1949-04-26,사립,본교,운영,경상남도 창원시 의창구 대산면 제동리 280,경상남도 창원시 의창구 대산면 진산대로 380,9010000,경상남도교육청,35.33415986,128.710433
174,B000013196,경안고등학교,고등학교,1954-05-14,사립,본교,운영,경상북도 안동시 금곡동 124-17,경상북도 안동시 제비원로 182,8750000,경상북도교육청,36.56850446,128.7204749
176,B000009077,유곡중학교,중학교,2003-03-05,공립,본교,운영,울산광역시 중구 태화동 196,울산광역시 중구 유곡로 85,7480000,울산광역시교육청,35.55882497,129.299591
178,B000008707,대명중학교,중학교,1970-06-05,공립,본교,운영,대구광역시 남구 대명동 519,대구광역시 남구 앞산순환로 477,7240000,대구광역시교육청,35.83308922,128.5767451
180,B000025754,인천경연중학교,중학교,2020-03-01,공립,본교,운영,인천광역시 서구 청라동 84-2,인천광역시 서구 차오름로 64,7310000,인천광역시교육청,37.53849651,126.6262363
182,B000012734,삼광고등학교,고등학교,1982-03-02,사립,본교,운영,경기도 파주시 적성면 식현리 284,경기도 파주시 적성면 청송로 701,7530000,경기도교육청,37.94557773,126.8855095
183,B000010932,인평중학교,중학교,2009-03-01,공립,본교,운영,경상북도 칠곡군 북삼읍 인평리 518-2,경상북도 칠곡군 북삼읍 북삼로 223,8750000,경상북도교육청,36.06259352,128.3356923
187,B000012067,단국대학교사범대학부속고등학교,고등학교,1983-12-26,사립,본교,운영,서울특별시 강남구 대치동 1013-3,서울특별시 강남구 도곡로64길 21,7010000,서울특별시교육청,37.49561749,127.0577682
191,B000010997,안민중학교,중학교,2007-03-01,공립,본교,운영,경상남도 창원시 성산구 안민동 663-4,경상남도 창원시 성산구 안민로160번길 11,9010000,경상남도교육청,35.18365416,128.6933757
192,B000011664,나주상업고등학교,고등학교,1967-03-08,공립,본교,운영,전라남도 나주시 청동 88-1,전라남도 나주시 함박산길 23-4,8490000,전라남도교육청,35.04269594,126.722411
195,B000008318,봉영여자중학교,중학교,1951-10-08,사립,본교,운영,서울특별시 양천구 신정동 325-8,서울특별시 양천구 목동동로2길 68,7010000,서울특별시교육청,37.50921598,126.8601984
196,B000009722,백학중학교,중학교,1962-04-02,공립,본교,운영,경기도 연천군 백학면 두일리 568-2,경기도 연천군 백학면 두일로 79,7530000,경기도교육청,38.02671508,126.9083579
198,B000010913,이서중학교,중학교,1952-05-15,사립,본교,운영,경상북도 청도군 이서면 서원리 331-3,경상북도 청도군 이서면 학산1길 22,8750000,경상북도교육청,35.66249467,128.6684614
199,B000013549,충현고등학교,고등학교,1997-03-05,공립,본교,운영,경기도 광명시 소하동 991-1,경기도 광명시 오리로348번길 62,7530000,경기도교육청,37.43295996,126.8845281
200,B000011564,정선정보공업고등학교,고등학교,1951-09-01,공립,본교,운영,강원도 정선군 정선읍 북실리 765-1,강원도 정선군 정선읍 용담샛길 2,7800000,강원도교육청,37.38045612,128.6471346
202,B000008927,풍암중학교,중학교,2000-03-02,공립,본교,운영,광주광역시 서구 풍암동 1098,광주광역시 서구 풍암순환로 51,7380000,광주광역시교육청,35.12235904,126.8781231
205,B000012210,대곡고등학교,고등학교,2003-03-03,공립,본교,운영,대구광역시 달서구 도원동 1459,대구광역시 달서구 도원남로 80,7240000,대구광역시교육청,35.80323736,128.536857
206,B000012106,광명고등학교,고등학교,1989-03-01,사립,본교,운영,부산광역시 영도구 동삼동 226-118,부산광역시 영도구 와치로 131,7150000,부산광역시교육청,35.08366549,129.0646045
208,B000023177,구산고등학교,고등학교,2015-03-01,공립,본교,운영,경상남도 김해시 구산동 396,경상남도 김해시 가야로 311,9010000,경상남도교육청,35.25044359,128.8756694
213,B000013266,이서고등학교,고등학교,1970-05-15,사립,본교,운영,경상북도 청도군 이서면 서원리 331-3,경상북도 청도군 이서면 학산1길 22,8750000,경상북도교육청,35.66249467,128.6684614
218,B000012767,치악고등학교,고등학교,2005-03-01,공립,본교,운영,강원도 원주시 관설동 1798-1,강원도 원주시 치악고교길 16,7800000,강원도교육청,37.31576468,127.9585892
222,B000011718,한국생명과학고등학교,고등학교,1933-04-20,공립,본교,운영,경상북도 안동시 옥동 1230,경상북도 안동시 하이마로 385,8750000,경상북도교육청,36.55044902,128.6877646
223,B000013202,성희여자고등학교,고등학교,1985-03-01,사립,본교,운영,경상북도 안동시 정하동 산102-1,경상북도 안동시 강남로 246,8750000,경상북도교육청,36.55153109,128.7291442
224,B000013195,경일고등학교,고등학교,1972-12-26,사립,본교,운영,경상북도 안동시 신안동 51,경상북도 안동시 치이골길 46,8750000,경상북도교육청,36.57569842,128.7378295
225,B000013530,보문고등학교,고등학교,1975-03-05,사립,본교,운영,광주광역시 광산구 운수동 308,광주광역시 광산구 어등대로529번길 37,7380000,광주광역시교육청,35.15386307,126.7768705
231,B000011808,부산해사고등학교,고등학교,1978-03-27,국립,본교,운영,부산광역시 영도구 동삼동 1167,부산광역시 영도구 해양로 425,7150000,부산광역시교육청,35.0741905,129.0770175
234,B000008928,광주화정중학교,중학교,1979-09-01,공립,본교,운영,광주광역시 서구 화정동 647-7,광주광역시 서구 화운로 53,7380000,광주광역시교육청,35.14412529,126.8823691
235,B000012097,혜광고등학교,고등학교,1955-03-29,사립,본교,운영,부산광역시 중구 보수동1가 2-420,부산광역시 중구 망양로259번길 5,7150000,부산광역시교육청,35.10879982,129.0246054
237,B000009832,영월중학교,중학교,1946-09-18,공립,본교,운영,강원도 영월군 영월읍 영흥리 716-1,강원도 영월군 영월읍 오무개길 51,7800000,강원도교육청,37.19059443,128.4711874
239,B000022744,모전중학교,중학교,2014-03-01,공립,본교,운영,부산광역시 기장군 정관읍 모전리 720,부산광역시 기장군 정관읍 정관1로 9,7150000,부산광역시교육청,35.33811873,129.1621538
240,B000008313,목동중학교,중학교,1981-05-20,공립,본교,운영,서울특별시 양천구 신정동 88-1,서울특별시 양천구 목동동로 172,7010000,서울특별시교육청,37.5209572,126.8714631
241,B000012405,울산제일고등학교,고등학교,1988-03-01,사립,본교,운영,울산광역시 남구 옥동 910-1,울산광역시 남구 남부순환도로 107,7480000,울산광역시교육청,35.54258944,129.2681645
243,B000009729,봄내중학교,중학교,1934-04-10,공립,본교,운영,강원도 춘천시 효자동 214-4,강원도 춘천시 공지로200번길 36,7800000,강원도교육청,37.86546754,127.7407637
244,B000012774,육민관고등학교,고등학교,1946-03-15,사립,본교,운영,강원도 원주시 흥업면 흥업리 751,강원도 원주시 흥업면 북원로 1800,7800000,강원도교육청,37.30936357,127.9184855
245,B000012412,남목고등학교,고등학교,2008-03-01,공립,본교,운영,울산광역시 동구 서부동 728,울산광역시 동구 방어진순환도로 1200,7480000,울산광역시교육청,35.53801042,129.4187517
247,B000008258,오륜중학교,중학교,1989-04-18,공립,본교,운영,서울특별시 송파구 방이동 89-7,서울특별시 송파구 양재대로 1242,7010000,서울특별시교육청,37.51632395,127.1389238
253,B000011838,광주자동화설비공업고등학교,고등학교,1979-03-08,공립,본교,운영,광주광역시 광산구 우산동 1084,광주광역시 광산구 사암로92번길 136-26,7380000,광주광역시교육청,35.15002094,126.8140921
254,B000011362,부산디지털고등학교,고등학교,1954-03-24,사립,본교,운영,부산광역시 중구 영주동 446-2,부산광역시 중구 망양로 356,7150000,부산광역시교육청,35.10885429,129.0324467
261,B000013540,성신고등학교,고등학교,1988-03-03,사립,본교,운영,울산광역시 중구 복산동 352-2,울산광역시 중구 성신고교길 26,7480000,울산광역시교육청,35.56270656,129.3278415
262,B000011399,대구공업고등학교,고등학교,1925-04-01,공립,본교,운영,대구광역시 동구 신암동 811,대구광역시 동구 대현로 135,7240000,대구광역시교육청,35.88321267,128.6141702
266,B000009392,송운중학교,중학교,1996-03-01,공립,본교,운영,경기도 시흥시 정왕동 1875-4,경기도 시흥시 옥구천동로 433-11,7530000,경기도교육청,37.35941067,126.731408
268,B000012100,경남고등학교,고등학교,1942-04-30,공립,본교,운영,부산광역시 서구 동대신동3가 1-1,부산광역시 서구 망양로111번길 65,7150000,부산광역시교육청,35.1201981,129.0200404
270,B000011009,용원중학교,중학교,2009-03-01,공립,본교,운영,경상남도 창원시 진해구 용원동 1231,경상남도 창원시 진해구 용원로77번길 16,9010000,경상남도교육청,35.09965504,128.8179932
271,B000011848,울산예술고등학교,고등학교,1993-03-09,사립,본교,운영,울산광역시 울주군 웅촌면 대복리 475-1,울산광역시 울주군 웅촌면 웅촌로 621-6,7480000,울산광역시교육청,35.4818641,129.2162738
272,B000025316,신용중학교,중학교,2014-03-01,공립,본교,운영,광주광역시 북구 신용동 672,광주광역시 북구 첨단연신로133번길 32,7380000,광주광역시교육청,35.2107845,126.8609609
273,B000009731,강원체육중학교,중학교,2005-03-02,공립,본교,운영,강원도 춘천시 송암동 129-1,강원도 춘천시 자라우새길 126,7800000,강원도교육청,37.85912229,127.694804
274,B000009833,봉래중학교,중학교,1982-03-05,공립,본교,운영,강원도 영월군 영월읍 덕포리 374,강원도 영월군 영월읍 중리1길 172-17,7800000,강원도교육청,37.18162818,128.4858655
278,B000008640,동촌중학교,중학교,1979-03-01,공립,본교,운영,대구광역시 동구 방촌동 1047-4,대구광역시 동구 동촌로 176,7240000,대구광역시교육청,35.88241653,128.6596318
280,B000009476,가림중학교,중학교,1991-03-01,공립,본교,운영,경기도 광명시 하안동 261,경기도 광명시 오리로 616,7530000,경기도교육청,37.45764308,126.8796742
281,B000012199,대구여자고등학교,고등학교,1954-06-21,공립,본교,운영,대구광역시 수성구 범어동 240-4,대구광역시 수성구 달구벌대로488길 17,7240000,대구광역시교육청,35.85650935,128.629864
282,B000009369,궁내중학교,중학교,1994-03-01,공립,본교,운영,경기도 군포시 산본동 1149-5,경기도 군포시 수리산로 171,7530000,경기도교육청,37.36388636,126.9190776
284,B000025726,아산테크노중학교,중학교,2017-03-01,공립,본교,운영,충청남도 아산시 둔포면 석곡리 1782,충청남도 아산시 둔포면 아산밸리북로 32,8140000,충청남도교육청,36.92648648,127.0518272
285,B000012251,인천만수고등학교,고등학교,2008-03-03,공립,본교,운영,인천광역시 남동구 만수동 605-5,인천광역시 남동구 장승로 91,7310000,인천광역시교육청,37.44709898,126.7422697
288,B000025146,별빛중학교,중학교,2016-03-01,공립,본교,운영,경상북도 영천시 고경면 해선리 240-3,경상북도 영천시 고경면 월천길 1-27,8750000,경상북도교육청,36.00232912,129.0432455
292,B000009920,대성중학교,중학교,1951-09-01,사립,본교,운영,충청북도 청주시 흥덕구 신봉동 171-9,충청북도 청주시 흥덕구 사운로 342,8000000,충청북도교육청,36.6580328,127.4691294
293,B000022777,가재울고등학교,고등학교,2013-03-01,공립,본교,운영,서울특별시 서대문구 북가좌동 476,서울특별시 서대문구 수색로 100-35,7010000,서울특별시교육청,37.57444587,126.9094148
297,B000012187,함지고등학교,고등학교,2008-03-01,공립,본교,운영,대구광역시 북구 구암동 488-3,대구광역시 북구 학정로48길 46,7240000,대구광역시교육청,35.92786841,128.5605125
300,B000011312,고명외식고등학교,고등학교,1956-02-21,사립,본교,운영,서울특별시 성북구 동선동4가 325-1,서울특별시 성북구 북악산로 870,7010000,서울특별시교육청,37.59767468,127.0191869
301,B000012217,경원고등학교,고등학교,1976-03-01,사립,본교,운영,대구광역시 달서구 용산동 6,대구광역시 달서구 새방로 77,7240000,대구광역시교육청,35.86547932,128.525679
302,B000008723,대진중학교,중학교,2006-03-03,공립,본교,운영,대구광역시 달서구 대곡동 1036-1,대구광역시 달서구 화암로73길 7,7240000,대구광역시교육청,35.80572575,128.5195259
304,B000013402,옥종고등학교,고등학교,1973-03-06,공립,본교,운영,경상남도 하동군 옥종면 양구리 41-1,경상남도 하동군 옥종면 옥수로 4-9,9010000,경상남도교육청,35.17816307,127.8845972
305,B000012120,동인고등학교,고등학교,1974-03-05,사립,본교,운영,부산광역시 동래구 사직동 981-90,부산광역시 동래구 쇠미로31번길 34,7150000,부산광역시교육청,35.19852193,129.0509969
306,B000009774,왕산중학교,중학교,1970-06-09,공립,본교,운영,강원도 강릉시 왕산면 도마리 325-18,강원도 강릉시 왕산면 백두대간로 2005,7800000,강원도교육청,37.67297147,128.8367696
309,B000010159,청양중학교,중학교,1931-09-01,공립,본교,운영,충청남도 청양군 청양읍 송방리 133-1,충청남도 청양군 청양읍 칠갑산로 179,8140000,충청남도교육청,36.45232466,126.79556
312,B000008691,복현중학교,중학교,1985-03-01,공립,본교,운영,대구광역시 북구 복현동 301-17,대구광역시 북구 동북로65길 28,7240000,대구광역시교육청,35.89394102,128.6279506
314,B000008238,중앙중학교,중학교,1908-06-20,사립,본교,운영,서울특별시 종로구 계동 1-23,서울특별시 종로구 창덕궁길 164,7010000,서울특별시교육청,37.58378822,126.9874726
315,B000010912,금천중학교,중학교,1952-02-10,공립,본교,운영,경상북도 청도군 금천면 동곡리 1035,경상북도 청도군 금천면 선암로 574-11,8750000,경상북도교육청,35.68807595,128.8947636
316,B000008523,성동중학교,중학교,1972-06-03,공립,본교,운영,부산광역시 남구 문현동 791,부산광역시 남구 남동천로 38,7150000,부산광역시교육청,35.13993339,129.0662635
318,B000008237,상명대학교사범대학부속여자중학교,중학교,1966-11-01,사립,본교,운영,서울특별시 종로구 홍지동 7-1,서울특별시 종로구 홍지문2길 20,7010000,서울특별시교육청,37.60410891,126.9551595
322,B000011942,동국대학교사범대학부속고등학교,고등학교,1947-06-24,사립,본교,운영,서울특별시 동대문구 장안동 328,서울특별시 동대문구 장안벚꽃로 201,7010000,서울특별시교육청,37.57804718,127.075133
323,B000011816,부일외국어고등학교,고등학교,1995-03-01,사립,본교,운영,부산광역시 사하구 감천동 634-61,부산광역시 사하구 감천로73번길 36,7150000,부산광역시교육청,35.09073609,129.0025604
324,B000011104,율하중학교,중학교,2010-03-01,공립,본교,운영,경상남도 김해시 율하동 1293,경상남도 김해시 율하1로 39,9010000,경상남도교육청,35.17508098,128.808001
325,B000012153,삼성여자고등학교,고등학교,1975-03-03,사립,본교,운영,부산광역시 사하구 감천동 598-1,부산광역시 사하구 감천로43번길 45,7150000,부산광역시교육청,35.09422497,128.9982328
327,B000011160,영산중학교,중학교,1951-06-25,공립,본교,운영,경상남도 창녕군 영산면 서리 253,경상남도 창녕군 영산면 영산계성로 87,9010000,경상남도교육청,35.4601691,128.5242737
330,B000012048,서울문영여자고등학교,고등학교,1991-11-07,사립,본교,운영,서울특별시 관악구 봉천동 1695,서울특별시 관악구 관악로 85,7010000,서울특별시교육청,37.47290457,126.9509181
337,B000012181,영신고등학교,고등학교,1946-10-17,사립,본교,운영,대구광역시 동구 봉무동 524,대구광역시 동구 팔공로50길 32,7240000,대구광역시교육청,35.92000422,128.646424
339,B000022613,거제장평중학교,중학교,2013-03-01,공립,본교,운영,경상남도 거제시 장평동 148,경상남도 거제시 장평4로 40,9010000,경상남도교육청,34.88608569,128.6064665
340,B000022983,연무여자중학교,중학교,1969-11-18,사립,본교,운영,충청남도 논산시 연무읍 동산리 879,충청남도 논산시 연무읍 동안로887번길 5,8140000,충청남도교육청,36.13536466,127.1046328
342,B000012154,성일여자고등학교,고등학교,1988-03-01,사립,본교,운영,부산광역시 사하구 신평동 60-1,부산광역시 사하구 다대로 161,7150000,부산광역시교육청,35.08949951,128.9800626
345,B000013479,대영고등학교,고등학교,1987-12-15,공립,본교,운영,서울특별시 영등포구 신길동 336-2,서울특별시 영등포구 도림로86길 16,7010000,서울특별시교육청,37.50366109,126.9058657
347,B000009024,가수원중학교,중학교,1988-03-05,공립,본교,운영,대전광역시 서구 가수원동 806-18,대전광역시 서구 가수원로 26,7430000,대전광역시교육청,36.29847211,127.354558
348,B000008657,동원중학교,중학교,1985-03-01,공립,본교,운영,대구광역시 수성구 만촌동 254,대구광역시 수성구 효행로2길 81,7240000,대구광역시교육청,35.87585642,128.6510708
350,B000011810,한국과학영재학교,고등학교,1990-09-07,국립,본교,운영,부산광역시 부산진구 당감동 899,부산광역시 부산진구 백양관문로 105-47,7150000,부산광역시교육청,35.16520011,129.0257844
351,B000012208,대구남산고등학교,고등학교,1953-01-31,사립,본교,운영,대구광역시 수성구 수성동1가 96-16,대구광역시 수성구 신천동로 364,7240000,대구광역시교육청,35.85731247,128.6091788
352,B000026354,고헌중학교,중학교,2020-03-01,공립,본교,운영,울산광역시 북구 화봉동 1485-1,울산광역시 북구 박상진2로 81,7480000,울산광역시교육청,35.59777915,129.364027
354,B000009788,상장중학교,중학교,1983-12-31,공립,본교,운영,강원도 태백시 황지동 123,강원도 태백시 태백로 1221,7800000,강원도교육청,37.15068611,128.9921217
356,B000009803,미로중학교,중학교,1971-04-21,공립,본교,운영,강원도 삼척시 미로면 하거노리 449,강원도 삼척시 미로면 강원남부로 3907,7800000,강원도교육청,37.41041541,129.1038915
359,B000008561,동래여자중학교,중학교,1895-10-15,사립,본교,운영,부산광역시 금정구 구서동 72-3,부산광역시 금정구 체육공원로 20,7150000,부산광역시교육청,35.24704234,129.0981972
364,B000008630,동아중학교,중학교,1946-03-10,사립,본교,운영,부산광역시 수영구 광안동 1222-23,부산광역시 수영구 호암로 55,7150000,부산광역시교육청,35.15678092,129.106984
365,B000011355,단국대학교부속소프트웨어고등학교,고등학교,1941-11-03,사립,본교,운영,서울특별시 강남구 대치동 1013-3,서울특별시 강남구 도곡로64길 21,7010000,서울특별시교육청,37.49562483,127.0577682
366,B000008405,남서울중학교,중학교,1964-11-12,공립,본교,운영,서울특별시 관악구 신림동 1690-3,서울특별시 관악구 남부순환로172길 97,7010000,서울특별시교육청,37.48213625,126.9210371
367,B000008365,봉은중학교,중학교,1986-03-01,공립,본교,운영,서울특별시 강남구 삼성동 82-7,서울특별시 강남구 영동대로128길 59,7010000,서울특별시교육청,37.51897667,127.0623894
369,B000023141,도담고등학교,고등학교,2013-03-01,공립,본교,운영,세종특별자치시 도담동 642,세종특별자치시 보듬4로 41,9300000,세종특별자치시교육청,36.51420716,127.2634446
372,B000008924,금호중앙중학교,중학교,1959-12-26,사립,본교,운영,광주광역시 북구 운암동 140,광주광역시 북구 금호로 100,7380000,광주광역시교육청,35.1785969,126.8855126
373,B000011103,월산중학교,중학교,2001-03-01,공립,본교,운영,경상남도 김해시 부곡동 806-10,경상남도 김해시 월산로 104,9010000,경상남도교육청,35.20526183,128.8039417
376,B000008184,선유중학교,중학교,1985-03-05,공립,본교,운영,서울특별시 영등포구 양평동3가 82,서울특별시 영등포구 선유로 213,7010000,서울특별시교육청,37.53328647,126.8943293
378,B000012028,독산고등학교,고등학교,2002-03-02,공립,본교,운영,서울특별시 금천구 독산동 907-34,서울특별시 금천구 문성로 64,7010000,서울특별시교육청,37.47621872,126.9109732
382,B000010586,산이중학교,중학교,1967-03-17,공립,본교,운영,전라남도 해남군 산이면 초송리 527-5,전라남도 해남군 산이면 비석길 98-2,8490000,전라남도교육청,34.6457944,126.4478198
383,B000009470,광남중학교,중학교,1982-03-05,공립,본교,운영,경기도 광명시 광명동 384-6,경기도 광명시 광명로 785,7530000,경기도교육청,37.47007475,126.8475588
384,B000013346,김해임호고등학교,고등학교,2012-03-01,공립,본교,운영,경상남도 김해시 외동 715-2,경상남도 김해시 분성로3번길 77,9010000,경상남도교육청,35.23826864,128.8527201
385,B000008256,방산중학교,중학교,1991-03-01,공립,본교,운영,서울특별시 송파구 방이동 220,서울특별시 송파구 오금로29길 31,7010000,서울특별시교육청,37.50937287,127.1218756
386,B000011200,하동중앙중학교,중학교,1961-05-01,공립,본교,운영,경상남도 하동군 하동읍 읍내리 667,경상남도 하동군 하동읍 연화길 77,9010000,경상남도교육청,35.07664446,127.7495276
394,B000012076,방산고등학교,고등학교,2003-10-01,공립,본교,운영,서울특별시 송파구 방이동 220-5,서울특별시 송파구 오금로27길 18,7010000,서울특별시교육청,37.50831315,127.1204696
395,B000008269,세륜중학교,중학교,1992-03-01,공립,본교,운영,서울특별시 송파구 오금동 7-3,서울특별시 송파구 양재대로72길 41,7010000,서울특별시교육청,37.50893314,127.1312464
397,B000011099,관동중학교,중학교,2004-03-01,공립,본교,운영,경상남도 김해시 관동동 422-1,경상남도 김해시 덕정로 77,9010000,경상남도교육청,35.17976521,128.7926333
398,B000013258,영양여자고등학교,고등학교,1973-03-04,사립,본교,운영,경상북도 영양군 영양읍 동부리 5,경상북도 영양군 영양읍 영양창수로 141,8750000,경상북도교육청,36.66188808,129.1297626
399,B000008281,정신여자중학교,중학교,1887-10-20,사립,본교,운영,서울특별시 송파구 잠실동 50-4,서울특별시 송파구 올림픽로4길 16,7010000,서울특별시교육청,37.50945384,127.0738473
400,B000008521,덕명여자중학교,중학교,1953-07-14,사립,본교,운영,부산광역시 부산진구 전포동 487,부산광역시 부산진구 봉수로 13,7150000,부산광역시교육청,35.15108044,129.0704519
401,B000013532,대전여자고등학교,고등학교,1937-05-01,공립,본교,운영,대전광역시 동구 대동 16-2,대전광역시 동구 용운로1번길 28-37,7430000,대전광역시교육청,36.33001268,127.4463707
403,B000008551,남산중학교,중학교,1991-01-04,공립,본교,운영,부산광역시 금정구 남산동 31-11,부산광역시 금정구 금단로 114,7150000,부산광역시교육청,35.25981702,129.0936509
405,B000013375,양산제일고등학교,고등학교,1994-03-01,사립,본교,운영,경상남도 양산시 교동 273,경상남도 양산시 회현1길 36,9010000,경상남도교육청,35.34459992,129.023799
407,B000025291,송례중학교,중학교,2014-03-04,공립,본교,운영,서울특별시 송파구 장지동 393,서울특별시 송파구 위례순환로 429,7010000,서울특별시교육청,37.47783301,127.1397415
408,B000008697,관천중학교,중학교,1994-03-01,공립,본교,운영,대구광역시 북구 태전동 999-1,대구광역시 북구 구암로22길 7,7240000,대구광역시교육청,35.93116386,128.5526133
409,B000010205,송산중학교,중학교,1981-03-06,공립,본교,운영,충청남도 당진시 송산면 도문리 169-1,충청남도 당진시 송산면 도문로 48,8140000,충청남도교육청,36.934811,126.6859161
410,B000009391,시화중학교,중학교,2006-03-01,공립,본교,운영,경기도 시흥시 정왕동 1552,경기도 시흥시 큰솔로52번길 23,7530000,경기도교육청,37.34098555,126.7561913
411,B000013367,거제고등학교,고등학교,1948-10-16,사립,본교,운영,경상남도 거제시 아주동 295-8,경상남도 거제시 아주로3길 61,9010000,경상남도교육청,34.86108759,128.6884261
412,B000011913,거제공업고등학교,고등학교,1969-03-02,공립,본교,운영,경상남도 거제시 고현동 920-2,경상남도 거제시 계룡로11길 63,9010000,경상남도교육청,34.88210511,128.614194
413,B000011393,부산산업과학고등학교,고등학교,1970-03-26,공립,본교,운영,부산광역시 강서구 봉림동 15,부산광역시 강서구 가락대로 1393,7150000,부산광역시교육청,35.18926099,128.9039687
418,B000012386,중일고등학교,고등학교,1988-03-15,사립,본교,운영,대전광역시 유성구 관평동 671,대전광역시 유성구 배울2로 68,7430000,대전광역시교육청,36.42052491,127.3886965
419,B000008650,영신중학교,중학교,1946-10-17,사립,본교,운영,대구광역시 동구 봉무동 524,대구광역시 동구 팔공로50길 32,7240000,대구광역시교육청,35.92000422,128.646424
420,B000011387,부일전자디자인고등학교,고등학교,1993-03-02,사립,본교,운영,부산광역시 사하구 감천동 634-61,부산광역시 사하구 감천로73번길 36,7150000,부산광역시교육청,35.09073609,129.0025604
421,B000011335,서울영상고등학교,고등학교,1952-03-01,사립,본교,운영,서울특별시 양천구 신정동 984,서울특별시 양천구 목동로11길 46,7010000,서울특별시교육청,37.52330444,126.8602935
423,B000011079,김해중학교,중학교,1952-05-17,공립,본교,운영,경상남도 김해시 부원동 39,경상남도 김해시 호계로 456,9010000,경상남도교육청,35.23110531,128.8861356
424,B000008672,신명여자중학교,중학교,1907-10-15,사립,본교,운영,대구광역시 수성구 수성동1가 96-16,대구광역시 수성구 신천동로 364,7240000,대구광역시교육청,35.85731247,128.6091788
426,B000012612,광명고등학교,고등학교,1975-03-03,공립,본교,운영,경기도 광명시 철산동 234,경기도 광명시 오리로876번길 17,7530000,경기도교육청,37.47857117,126.8659896
427,B000008908,신광중학교,중학교,1981-03-06,공립,본교,운영,광주광역시 북구 두암동 576-5,광주광역시 북구 면앙로165번길 80,7380000,광주광역시교육청,35.17953334,126.9321202
428,B000012835,양구여자고등학교,고등학교,1974-01-05,공립,본교,운영,강원도 양구군 양구읍 정림리 230-1,강원도 양구군 양구읍 박수근로 327,7800000,강원도교육청,38.1009114,127.9808197
429,B000009871,석천중학교,중학교,1970-03-10,공립,본교,운영,강원도 양구군 양구읍 정림리 230-1,강원도 양구군 양구읍 박수근로 327,7800000,강원도교육청,38.1009114,127.9808197
430,B000008631,기장중학교,중학교,1954-05-31,공립,본교,운영,부산광역시 기장군 기장읍 대라리 40,부산광역시 기장군 기장읍 읍내로 120,7150000,부산광역시교육청,35.24488187,129.2183149
431,B000009916,운호중학교,중학교,1968-03-06,사립,본교,운영,충청북도 청주시 서원구 모충동 132-13,충청북도 청주시 서원구 무심서로 375,8000000,충청북도교육청,36.62505317,127.4851868
432,B000013541,문현고등학교,고등학교,2006-03-01,공립,본교,운영,울산광역시 동구 방어동 1008,울산광역시 동구 화잠7길 25,7480000,울산광역시교육청,35.48239565,129.4091804
433,B000010194,만리포중학교,중학교,1968-03-22,공립,본교,운영,충청남도 태안군 소원면 신덕리 631-2,충청남도 태안군 소원면 소근로 63-12,8140000,충청남도교육청,36.76552125,126.1939311
434,B000022914,춘천여자고등학교,고등학교,1934-04-10,공립,본교,운영,강원도 춘천시 동면 장학리 173,강원도 춘천시 동면 만천양지길 95,7800000,강원도교육청,37.88848989,127.7635403
435,B000008651,공산중학교,중학교,1954-04-23,사립,본교,운영,대구광역시 동구 백안동 560-5,대구광역시 동구 팔공로197길 26,7240000,대구광역시교육청,35.95506586,128.6906838
436,B000011923,상명대학교사범대학부속여자고등학교,고등학교,1967-03-07,사립,본교,운영,서울특별시 종로구 홍지동 7-1,서울특별시 종로구 홍지문2길 20,7010000,서울특별시교육청,37.60410891,126.9551595
437,B000012788,황지고등학교,고등학교,1965-12-18,공립,본교,운영,강원도 태백시 황지동 232,강원도 태백시 번영로 179,7800000,강원도교육청,37.16112037,128.9855688
440,B000009849,계촌중학교,중학교,1969-03-12,공립,본교,운영,강원도 평창군 방림면 계촌리 2054-2,강원도 평창군 방림면 계촌길 139,7800000,강원도교육청,37.45322867,128.3083929
441,B000009113,울산중앙중학교,중학교,1980-03-02,공립,본교,운영,울산광역시 남구 신정동 859-3,울산광역시 남구 중앙로63번길 5,7480000,울산광역시교육청,35.5260243,129.3156805
442,B000025338,수완하나중학교,중학교,2015-03-01,공립,본교,운영,광주광역시 광산구 수완동 973,광주광역시 광산구 수완로105번길 47,7380000,광주광역시교육청,35.19420808,126.8275242
443,B000011088,경운중학교,중학교,2001-03-01,공립,본교,운영,경상남도 김해시 내동 1115-3,경상남도 김해시 우암로 62,9010000,경상남도교육청,35.23612594,128.8618342
444,B000012401,무거고등학교,고등학교,2006-03-04,공립,본교,운영,울산광역시 남구 무거동 1000,울산광역시 남구 대학로1번길 17-28,7480000,울산광역시교육청,35.53627893,129.2507423
446,B000008733,성서중학교,중학교,1970-03-30,공립,본교,운영,대구광역시 달서구 용산동 948,대구광역시 달서구 용산서로 63,7240000,대구광역시교육청,35.8558081,128.5266048
449,B000008486,다송중학교,중학교,1993-03-05,공립,본교,운영,부산광역시 사하구 다대동 95,부산광역시 사하구 다송로 55,7150000,부산광역시교육청,35.06434989,128.9847862
451,B000013477,우신고등학교,고등학교,1974-03-05,사립,본교,운영,서울특별시 구로구 궁동 230,서울특별시 구로구 부일로 917,7010000,서울특별시교육청,37.49490231,126.8263536
452,B000012812,주천고등학교,고등학교,1946-04-01,공립,본교,운영,강원도 영월군 주천면 주천리 1430,강원도 영월군 주천면 주천로89번길 41,7800000,강원도교육청,37.27355179,128.2650794
454,B000022940,강경상업고등학교,고등학교,1920-05-25,공립,본교,운영,충청남도 논산시 강경읍 남교리 1,충청남도 논산시 강경읍 계백로 220,8140000,충청남도교육청,36.16142445,127.023298
458,B000008385,남성중학교,중학교,1983-04-29,공립,본교,운영,서울특별시 동작구 사당동 304-45,서울특별시 동작구 남부순환로269길 166,7010000,서울특별시교육청,37.47900822,126.972489
463,B000009263,대안여자중학교,중학교,1986-03-01,공립,본교,운영,경기도 안양시 동안구 호계동 1233,경기도 안양시 동안구 흥안대로223번길 46,7530000,경기도교육청,37.3771591,126.9651002
464,B000009058,대전하기중학교,중학교,2006-03-01,공립,본교,운영,대전광역시 유성구 하기동 520,대전광역시 유성구 송림로48번길 6-30,7430000,대전광역시교육청,36.38588907,127.3222049
465,B000026215,목감고등학교,고등학교,2020-03-01,공립,본교,운영,경기도 시흥시 조남동 387,경기도 시흥시 목감둘레로 150,7530000,경기도교육청,37.37222339,126.8571834
466,B000008529,남천중학교,중학교,1984-12-29,공립,본교,운영,부산광역시 남구 대연동 455-12,부산광역시 남구 황령대로492번길 71,7150000,부산광역시교육청,35.13660359,129.1052341
467,B000012085,정신여자고등학교,고등학교,1887-10-20,사립,본교,운영,서울특별시 송파구 잠실동 50-4,서울특별시 송파구 올림픽로4길 16,7010000,서울특별시교육청,37.50945384,127.0738473
468,B000008913,문화중학교,중학교,1984-03-08,공립,본교,운영,광주광역시 북구 우산동 118-4,광주광역시 북구 면앙로 111,7380000,광주광역시교육청,35.17846694,126.9239162
469,B000011367,부산영상예술고등학교,고등학교,1955-04-25,공립,본교,운영,부산광역시 영도구 신선동3가 71-1,부산광역시 영도구 영상길 100,7150000,부산광역시교육청,35.08513613,129.0449175
470,B000011565,김화공업고등학교,고등학교,1968-04-25,공립,본교,운영,강원도 철원군 서면 와수리 589-5,강원도 철원군 서면 와수1로 72,7800000,강원도교육청,38.24340756,127.4349464
472,B000012960,대흥고등학교,고등학교,1966-02-22,사립,본교,운영,충청남도 예산군 대흥면 상중리 231,충청남도 예산군 대흥면 예당로 845,8140000,충청남도교육청,36.60548656,126.7916056
473,B000009073,성안중학교,중학교,2001-03-05,공립,본교,운영,울산광역시 중구 성안동 519-8,울산광역시 중구 성안2길 30,7480000,울산광역시교육청,35.57278036,129.3178978
476,B000010266,군산대성중학교,중학교,1966-03-11,사립,본교,운영,전라북도 군산시 임피면 읍내리 535-4,전라북도 군산시 임피면 임피향교길 44-6,8320000,전라북도교육청,35.98863023,126.8486974
479,B000008343,원촌중학교,중학교,1983-03-01,공립,본교,운영,서울특별시 서초구 반포동 22,서울특별시 서초구 사평대로45길 10,7010000,서울특별시교육청,37.5063251,127.0146997
480,B000012197,경상여자고등학교,고등학교,1957-05-25,사립,본교,운영,대구광역시 북구 침산동 810-1,대구광역시 북구 침산남로9길 164,7240000,대구광역시교육청,35.90054196,128.5878439
486,B000009017,신탄진중학교,중학교,1965-03-05,사립,본교,운영,대전광역시 대덕구 석봉동 311-1,대전광역시 대덕구 석봉로 15,7430000,대전광역시교육청,36.44731214,127.4234779
487,B000012182,대구동부고등학교,고등학교,1988-03-01,사립,본교,운영,대구광역시 동구 각산동 199,대구광역시 동구 반야월북로 199,7240000,대구광역시교육청,35.87429023,128.7190722
488,B000011767,밀성제일고등학교,고등학교,1974-01-05,사립,본교,운영,경상남도 밀양시 내이동 590-1,경상남도 밀양시 밀양대로 2078,9010000,경상남도교육청,35.50218318,128.750145
492,B000012883,진천고등학교,고등학교,1977-03-05,공립,본교,운영,충청북도 진천군 진천읍 신정리 590,충청북도 진천군 진천읍 문화12길 48,8000000,충청북도교육청,36.8539549,127.4499542
493,B000009840,옥동중학교,중학교,1971-12-31,공립,본교,운영,강원도 영월군 김삿갓면 옥동리 402,강원도 영월군 김삿갓면 영월동로 1664,7800000,강원도교육청,37.12816565,128.5706668
495,B000011177,양주중학교,중학교,1970-03-16,공립,본교,운영,경상남도 양산시 상북면 석계리 51,경상남도 양산시 상북면 양주마을2길 18,9010000,경상남도교육청,35.41517665,129.0677568
496,B000009324,서천중학교,중학교,2011-03-01,공립,본교,운영,경기도 용인시 기흥구 서천동 796,경기도 용인시 기흥구 서천동로 7,7530000,경기도교육청,37.24001911,127.0758949
497,B000012550,성복고등학교,고등학교,2011-03-01,공립,본교,운영,경기도 용인시 수지구 성복동 782,경기도 용인시 수지구 도마치로 92,7530000,경기도교육청,37.32336344,127.0611228
498,B000011813,부산국제외국어고등학교,고등학교,2004-03-01,사립,본교,운영,부산광역시 해운대구 우동 1025-127,부산광역시 해운대구 해운대로469번길 50-1,7150000,부산광역시교육청,35.16591884,129.1443578
499,B000008641,불로중학교,중학교,1991-03-01,공립,본교,운영,대구광역시 동구 불로동 1010,대구광역시 동구 방천로5길 8,7240000,대구광역시교육청,35.89830061,128.6344118
